[
    {
      "brewery": "10 Barrel Brewing Co.",
      "url": "https://10barrel.com/pub/san-diego/",
      "address": "1501 E St, San Diego, CA 92101",
      "latitude": 32.71446,
      "longitude": -117.150166
    },
    {
      "brewery": "2Kids Brewing Co.",
      "url": "http://www.twokidsbrewing.com/",
      "address": "8680 Miralani Drive #123, San Diego, CA 92126",
      "latitude": 32.896653,
      "longitude": -117.137275
    },
    {
      "brewery": "32 North Brewing",
      "url": "http://www.32northbrew.com/",
      "address": "8555 Production Avenue, Suite A, San Diego, CA 92121",
      "latitude": 32.880622,
      "longitude": -117.165273
    },
    {
      "brewery": "Abnormal Beer Company",
      "url": "http://abnormalbeer.com/",
      "address": "16990 Via Tazon, Suite 124, San Diego, CA 92127",
      "latitude": 33.023635,
      "longitude": -117.085908
    },
    {
      "brewery": "Acoustic Ales Brewing Experiment",
      "url": "http://www.acousticales.com/",
      "address": "1795 Hancock Street, Suite P1, San Diego, CA 92110",
      "latitude": 32.742273,
      "longitude": -117.184648
    },
    {
      "brewery": "AleSmith Brewing Company",
      "url": "http://www.alesmith.com/",
      "address": "9990 AleSmith Ct., San Diego, CA 92126",
      "latitude": 32.888218,
      "longitude": -117.149821
    },
    {
      "brewery": "Align Brewing Co.",
      "url": "https://www.facebook.com/alignbrewing/",
      "address": "8680 Miralani Dr, San Diego, CA 92121",
      "latitude": 32.896653,
      "longitude": -117.137275
    },
    {
      "brewery": "Alpine Beer Company",
      "url": "http://www.alpinebeerco.com/",
      "address": "2351 Alpine Boulevard, Alpine CA 91901",
      "latitude": 32.835169,
      "longitude": -116.762666
    },
    {
      "brewery": "Amplified Ale Works",
      "url": "http://www.amplifiedales.com/",
      "address": "4150 Mission Blvd #208, San Diego, CA 92109",
      "latitude": 32.791766,
      "longitude": -117.254325
    },
    {
      "brewery": "Amplified Ale Works",
      "url": "http://www.amplifiedales.com/",
      "address": "9030 Kenamar Drive, Unit 309, San Diego, CA 92121",
      "latitude": 32.886631,
      "longitude": -117.157127
    },
    {
      "brewery": "Arcana Brewing Co.",
      "url": "http://www.arcanabrewing.com/",
      "address": "5621 Palmer Way, Suite C, Carlsbad, CA 92010",
      "latitude": 33.14021,
      "longitude": -117.273924
    },
    {
      "brewery": "Automatic Brewing Company",
      "url": "http://www.automaticbrewingco.com/",
      "address": "3416 Adams Avenue, San Diego, CA 92116",
      "latitude": 32.763498,
      "longitude": -117.120301
    },
    {
      "brewery": "Aztec Brewing Company",
      "url": "http://www.aztecbrewery.com/",
      "address": "2330 La Mirada Dr. Suite 300, Vista CA 92081",
      "latitude": 33.149647,
      "longitude": -117.23004
    },
    {
      "brewery": "Back Street Brewery",
      "url": "http://www.lamppostpizza.com/backstreet/",
      "address": "15 Main Street, Suite #100, Vista, CA 92084",
      "latitude": 33.200008,
      "longitude": -117.244742
    },
    {
      "brewery": "Bagby Beer Company",
      "url": "http://www.bagbybeer.com/",
      "address": "601 South Coast Highway, Oceanside CA 92054",
      "latitude": 33.189368,
      "longitude": -117.374349
    },
    {
      "brewery": "Ballast Point Brewing & Spirits - Scripps Ranch",
      "url": "http://www.ballastpoint.com/",
      "address": "10051 Old Grove Road, San Diego, CA 92131",
      "latitude": 32.898525,
      "longitude": -117.110941
    },
    {
      "brewery": "Ballast Point Brewing & Spirits - Home Brew Mart",
      "url": "http://www.ballastpoint.com/",
      "address": "5401 Linda Vista Rd., Suite 406, San Diego, CA 92110",
      "latitude": 32.766716,
      "longitude": -117.195264
    },
    {
      "brewery": "Ballast Point Brewing & Spirits - Little Italy",
      "url": "http://www.ballastpoint.com/",
      "address": "2215 India Street, San Diego, CA 92101",
      "latitude": 32.727635,
      "longitude": -117.169718
    },
    {
      "brewery": "Barn Brewery",
      "url": "http://www.thebarnbrew.com/",
      "address": "2850 El Cajon Boulevard Ste 3, San Diego, CA 92104",
      "latitude": 32.75559,
      "longitude": -117.132381
    },
    {
      "brewery": "Barrel Harbor",
      "url": "http://barrelharborbrewing.com/",
      "address": "2575 Pioneer Avenue #104, Vista, CA 92081",
      "latitude": 33.148874,
      "longitude": -117.221588
    },
    {
      "brewery": "Barrel Rescue",
      "url": "https://www.facebook.com/pg/barrelrescuebrewing",
      "address": "8125 Ronson Rd, Unit F, San Diego, CA 92111",
      "latitude": 32.828927,
      "longitude": -117.147994
    },
    {
      "brewery": "Battlemage Brewing Company",
      "url": "http://battlemagebrewing.com/",
      "address": "2870 Scott St, Vista, CA 92081",
      "latitude": 33.140422,
      "longitude": -117.227523
    },
    {
      "brewery": "Bay Bridge Brewing",
      "url": "http://www.baybridgebrewing.com/",
      "address": "688 Marsat Court Suite B, Chula Vista, CA 91911",
      "latitude": 32.601195,
      "longitude": -117.083224
    },
    {
      "brewery": "Bay City Brewing",
      "url": "http://baycitybrewingco.com/",
      "address": "3760 Hancock St, San Diego, CA 92110",
      "latitude": 32.757699,
      "longitude": -117.211665
    },
    {
      "brewery": "Bear Roots Brewing Co.",
      "url": "http://www.brbrewco.com/",
      "address": "1213 S. Santa Fe Avenue, Vista, CA 92083",
      "latitude": 33.188242,
      "longitude": -117.226326
    },
    {
      "brewery": "Belching Beaver Brewery",
      "url": "http://www.belchinbeaver.com/",
      "address": "980 Park Center Drive, Suite A, Vista, CA 92081",
      "latitude": 33.145019,
      "longitude": -117.229672
    },
    {
      "brewery": "Belching Beaver Brewery",
      "url": "http://www.belchinbeaver.com/",
      "address": "1334 Rocky Point Dr, Oceanside, CA 92056",
      "latitude": 33.212524,
      "longitude": -117.291587
    },
    {
      "brewery": "Belching Beaver Brewery Tavern & Grill",
      "url": "http://www.belchingbeaver.com/beav-tavern/",
      "address": "302 East Broadway, Vista, CA 92084",
      "latitude": 33.202121,
      "longitude": -117.241023
    },
    {
      "brewery": "Benchmark Brewing",
      "url": "http://www.benchmarkbrewing.com/",
      "address": "6190 Fairmount ave. Suite G, San Diego, CA 92120",
      "latitude": 32.787245,
      "longitude": -117.10207
    },
    {
      "brewery": "Bitter Brothers Brewing",
      "url": "http://bitterbrothers.com/",
      "address": "4170 Morena Blvd, San Diego, CA 92117",
      "latitude": 32.815782,
      "longitude": -117.220164
    },
    {
      "brewery": "Black Plague Brewing",
      "url": "https://blackplaguebrewing.com/",
      "address": "2550 Jason Ct, Oceanside, CA 92056",
      "latitude": 33.215612,
      "longitude": -117.266739
    },
    {
      "brewery": "BNS Brewing & Distilling",
      "url": "http://www.bnsbrewinganddistilling.com/",
      "address": "10960 Wheatlands Avenue #101, Santee, CA 92071",
      "latitude": 32.846623,
      "longitude": -116.958363
    },
    {
      "brewery": "Bolt Brewing Co.",
      "url": "http://www.boltbrewery.com/",
      "address": "8179 Center Street, La Mesa, CA 91942",
      "latitude": 32.771897,
      "longitude": -117.020594
    },
    {
      "brewery": "Booze Brothers Brewing Co.",
      "url": "http://boozebrothersbrewery.com/",
      "address": "2545 Progress St. Suite D, Vista, CA 92081",
      "latitude": 33.148182,
      "longitude": -117.218142
    },
    {
      "brewery": "Border X Brewing",
      "url": "http://borderxbrewing.com/",
      "address": "8684 Avenida de la Fuente Suite 8, San Diego, CA 92154",
      "latitude": 32.556685,
      "longitude": -116.956819
    },
    {
      "brewery": "Breakwater Brewing Company",
      "url": "http://www.breakwaterbrewing.com/",
      "address": "101 N. Coast Highway, Oceanside, CA 92054",
      "latitude": 33.195092,
      "longitude": -117.379127
    },
    {
      "brewery": "Burgeon Beer Company",
      "url": "http://www.burgeonbeer.com/",
      "address": "6350 Yarrow Dr, Suite C, Carlsbad, CA 92011",
      "latitude": 33.119782,
      "longitude": -117.272939
    },
    {
      "brewery": "Burning Beard Brewing Company",
      "url": "http://burningbeardbrewing.com/",
      "address": "785 Vernon Way, El Cajon, CA 92020",
      "latitude": 32.811741,
      "longitude": -116.972411
    },
    {
      "brewery": "California Wild Ales",
      "url": "http://www.californiawildales.com/",
      "address": "4202 Sorrento Valley BLVD, Suite L&M, San Diego, CA 92121",
      "latitude": 32.905083,
      "longitude": -117.215118
    },
    {
      "brewery": "ChuckAlek Independent Brewers",
      "url": "http://www.chuckalek.com/",
      "address": "2330 Main St, Suite C, Ramona, CA 92065",
      "latitude": 33.027784,
      "longitude": -116.88917
    },
    {
      "brewery": "Chula Vista Brewery",
      "url": "http://www.chulavistabrewery.com/",
      "address": "294 3rd Ave, Chula Vista, CA 91910",
      "latitude": 32.641563,
      "longitude": -117.080333
    },
    {
      "brewery": "Circle 9 Brewing",
      "url": "http://circle9brewing.com/",
      "address": "7292 Opportunity Rd, San Diego, CA 92111",
      "latitude": 32.825728,
      "longitude": -117.160758
    },
    {
      "brewery": "Coronado Brewing Company",
      "url": "http://coronadobrewingcompany.com/",
      "address": "170 Orange Avenue, Coronado, CA 92118",
      "latitude": 32.697769,
      "longitude": -117.173233
    },
    {
      "brewery": "Coronado Brewing Company",
      "url": "http://coronadobrewingcompany.com/",
      "address": "1205 Knoxville Street, San Diego, CA 92110",
      "latitude": 32.771872,
      "longitude": -117.204579
    },
    {
      "brewery": "Council Brewing Co.",
      "url": "http://councilbrew.com/",
      "address": "7705 Convoy Court, San Diego, CA 92111",
      "latitude": 32.834547,
      "longitude": -117.154451
    },
    {
      "brewery": "Culture Brewing Co.",
      "url": "http://www.culturebrewingco.com/",
      "address": "111 S. Cedros Ave Suite 200, Solana Beach, CA 92075",
      "latitude": 32.99158,
      "longitude": -117.270712
    },
    {
      "brewery": "Culver Beer Co.",
      "url": "http://www.culverbeer.com/",
      "address": "2719 Loker Avenue West Suite D, Carlsbad, CA, 92010",
      "latitude": 33.132694,
      "longitude": -117.258518
    },
    {
      "brewery": "Deft Brewing",
      "url": "http://deftbrewing.com/",
      "address": "5328 Banks Street, Ste A, San Diego, CA 92110",
      "latitude": 32.764388,
      "longitude": -117.198939
    },
    {
      "brewery": "Division 23 Brewing",
      "url": "http://www.division23brewing.com/",
      "address": "7408 Trade St, San Diego, California 92121",
      "latitude": 32.890339,
      "longitude": -117.162898
    },
    {
      "brewery": "Dos Desperados Brewing",
      "url": "http://www.dosdesperadosbrew.com/",
      "address": "1241 Linda Vista Drive, San Marcos, CA 92078",
      "latitude": 33.136918,
      "longitude": -117.193425
    },
    {
      "brewery": "Duck Foot Brewing Co.",
      "url": "http://duckfootbeer.com/",
      "address": "8920 Kenamar Dr. Suite #210, San Diego, CA 92121",
      "latitude": 32.885338,
      "longitude": -117.156471
    },
    {
      "brewery": "Ebullition Brew Works",
      "url": "https://www.ebullitionbrew.com/",
      "address": "2449 Cades, Suite D, Vista, CA 92081",
      "latitude": 33.153796,
      "longitude": -117.22416
    },
    {
      "brewery": "Eppig Brewing",
      "url": "http://www.eppigbrewing.com/",
      "address": "3052 El Cajon Blvd., Suite C San Diego, CA 92104",
      "latitude": 32.75558,
      "longitude": -117.12875
    },
    {
      "brewery": "Escondido Brewing Company",
      "url": "https://www.escobrewco.com/",
      "address": "649 Rock Springs Road, Escondido, CA 92025",
      "latitude": 33.124577,
      "longitude": -117.097009
    },
    {
      "brewery": "Fall Brewing Co.",
      "url": "http://fallbrewing.com/",
      "address": "4532 30th Street, San Diego, CA 92104",
      "latitude": 32.759816,
      "longitude": -117.13046
    },
    {
      "brewery": "Fallbrook Brewing Company",
      "url": "http://fallbrookbrewing.com/",
      "address": "136 N Main Ave, Fallbrook, CA",
      "latitude": 33.3827,
      "longitude": -117.251516
    },
    {
      "brewery": "Finest Made Ales",
      "url": "http://www.finestmade.com/",
      "address": "9962 Prospect Ave, Santee, CA 92071",
      "latitude": 32.831992,
      "longitude": -116.979631
    },
    {
      "brewery": "Gordon Biersch Brewery Restaurant",
      "url": "http://www.gordonbiersch.com/locations/san-diego",
      "address": "5010 Mission Center Road, San Diego, CA 92108",
      "latitude": 32.767075,
      "longitude": -117.153911
    },
    {
      "brewery": "Green Flash Brewing Co.",
      "url": "http://www.greenflashbrew.com/",
      "address": "6550 Mira Mesa Blvd., San Diego, CA 92121",
      "latitude": 32.90711,
      "longitude": -117.177759
    },
    {
      "brewery": "Groundswell Brewing Co.",
      "url": "http://groundswellbrew.com/",
      "address": "6304 Riverdale Street, San Diego, CA 92120",
      "latitude": 32.788995,
      "longitude": -117.099787
    },
    {
      "brewery": "Groundswell Brewing Co.",
      "url": "http://groundswellbrew.com/",
      "address": "10151 Prospect Avenue, Santee, CA 92071",
      "latitude": 32.830715,
      "longitude": -116.976688
    },
    {
      "brewery": "Guadalupe Brewery",
      "url": "http://www.guadalupebrewery.com/",
      "address": "5650 El Camino Real, Carlsbad, CA 92008",
      "latitude": 33.13954,
      "longitude": -117.27465
    },
    {
      "brewery": "Half Door Brewing Co.",
      "url": "http://www.halfdoorbrewing.com/",
      "address": "903 Island Avenue, San Diego, CA 92101",
      "latitude": 32.710264,
      "longitude": -117.156271
    },
    {
      "brewery": "Helm's Brewing",
      "url": "http://helmsbrewingco.com/",
      "address": "5640 Kearny Mesa Rd, Suite C/N, San Diego, CA 92111",
      "latitude": 32.83732,
      "longitude": -117.139068
    },
    {
      "brewery": "Helix Brewing Co.",
      "url": "http://drinkhelix.com/home/",
      "address": "8101 Commercial Street, La Mesa, CA 91942",
      "latitude": 32.772018,
      "longitude": -117.023341
    },
    {
      "brewery": "Hillcrest Brewing Company",
      "url": "http://hillcrestbrewingcompany.com/",
      "address": "1458 University Ave, San Diego, CA 92103",
      "latitude": 32.749106,
      "longitude": -117.149911
    },
    {
      "brewery": "Home Brewing Co.",
      "url": "http://www.thehomebrewersd.com/",
      "address": "2911 El Cajon Boulevard, Space #2, San Diego, CA 92104",
      "latitude": 32.755089,
      "longitude": -117.130994
    },
    {
      "brewery": "Horus Aged Ales",
      "url": "https://horusbeer.com/",
      "address": "Oceanside, CA 92154",
      "latitude": 33.206627,
      "longitude": -117.311025
    },
    {
      "brewery": "Indian Joe Brewing",
      "url": "https://indianjoebrewing.com/",
      "address": "2123 Industrial Ct, Vista, CA 92081",
      "latitude": 33.169424,
      "longitude": -117.22049
    },
    {
      "brewery": "Intergalactic Brewing Co",
      "url": "http://intergalacticbrew.com/",
      "address": "9835 Carroll Centre, Suite 108, San Diego, CA 92126",
      "latitude": 32.898747,
      "longitude": -117.120638
    },
    {
      "brewery": "Iron Fist Brewing Company",
      "url": "http://ironfistbrewing.com/",
      "address": "1305 Hot Spring Way #101, Vista, CA 92081",
      "latitude": 33.14555,
      "longitude": -117.23863
    },
    {
      "brewery": "Jacked Up Brewing",
      "url": "http://jackedupbrewery.com/",
      "address": "800 West Grand Ave, Escondido, CA 92025",
      "latitude": 33.117424,
      "longitude": -117.091774
    },
    {
      "brewery": "Jamul Brewing Co.",
      "url": "http://jpilarwines.com/jamul-brewing-co/",
      "address": "Jamul, CA 91935",
      "latitude": 32.716999,
      "longitude": -116.876135
    },
    {
      "brewery": "Julian Brewing Company",
      "url": "https://www.facebook.com/julianbrewing",
      "address": "2315 Main Street, Julian, CA 92036",
      "latitude": 33.079128,
      "longitude": -116.604129
    },
    {
      "brewery": "Karl Strauss 4S Ranch",
      "url": "http://www.karlstrauss.com/PAGES/Eats/4SRanch.html",
      "address": "10448 Reserve Drive, San Diego, CA 92127",
      "latitude": 33.02146,
      "longitude": -117.113403
    },
    {
      "brewery": "Karl Strauss Carlsbad",
      "url": "http://www.karlstrauss.com/PAGES/Eats/Carlsbad.html",
      "address": "5801 Armada Drive, Carlsbad, CA 92008",
      "latitude": 33.124406,
      "longitude": -117.314015
    },
    {
      "brewery": "Karl Strauss Downtown",
      "url": "http://www.karlstrauss.com/PAGES/Eats/Downtown.html",
      "address": "1157 Columbia Street, San Diego, CA 92101",
      "latitude": 32.717455,
      "longitude": -117.167076
    },
    {
      "brewery": "Karl Strauss La Jolla",
      "url": "http://www.karlstrauss.com/PAGES/Eats/LaJolla.html",
      "address": "1044 Wall Street, La Jolla, CA 92037",
      "latitude": 32.846997,
      "longitude": -117.274003
    },
    {
      "brewery": "Karl Strauss",
      "url": "http://www.karlstrauss.com/brewery/",
      "address": "5985 Santa Fe Street, San Diego, CA 92109",
      "latitude": 32.832049,
      "longitude": -117.231234
    },
    {
      "brewery": "Karl Strauss Sorrento Mesa",
      "url": "http://www.karlstrauss.com/PAGES/Eats/SorrentoMesa.html",
      "address": "9675 Scranton Rd, San Diego, CA 92121",
      "latitude": 32.896535,
      "longitude": -117.201765
    },
    {
      "brewery": "Kensington Brewing Company",
      "url": "http://www.kensingtonbrewco.com/",
      "address": "5839 Mission Gorge Road, Suite E, San Diego, CA 92120",
      "latitude": 32.781112,
      "longitude": -117.100074
    },
    {
      "brewery": "Kilowatt Brewing Company",
      "url": "http://kilowatt.beer/",
      "address": "7576 Clairemont Mesa Blvd., San Diego, CA 92111",
      "latitude": 32.833109,
      "longitude": -117.156369
    },
    {
      "brewery": "KnB Brewery",
      "url": "http://www.knbwinecellars.com/",
      "address": "6380 Del Cerro Blvd, San Diego, CA 92120",
      "latitude": 32.784005,
      "longitude": -117.05993
    },
    {
      "brewery": "Knotty Brewing Co.",
      "url": "http://knottybrewing.com/",
      "address": "842 Market St, San Diego, CA 92101",
      "latitude": 32.711777,
      "longitude": -117.156852
    },
    {
      "brewery": "Kuracali Sake & Beer Brewery",
      "url": "http://www.knbwinecellars.com/",
      "address": "175 Bosstick Blvd. #104, San Marcos, CA 92069",
      "latitude": 33.161646,
      "longitude": -117.201259
    },
    {
      "brewery": "La Jolla Beer Co.",
      "url": "http://lajollabeer.com/",
      "address": "7536 Fay Avenue, San Diego, CA 92037",
      "latitude": 32.840815,
      "longitude": -117.274361
    },
    {
      "brewery": "Latitude 33 Brewing Company",
      "url": "http://www.lat33brew.com/",
      "address": "1430 Vantage Court, Suite 104, Vista, CA 92081",
      "latitude": 33.136065,
      "longitude": -117.224895
    },
    {
      "brewery": "Legacy Brewing Company",
      "url": "http://www.legacybrewingco.com/",
      "address": "363 Airport Road Oceanside, CA 92058",
      "latitude": 33.21539,
      "longitude": -117.35077
    },
    {
      "brewery": "Little Miss Brewing",
      "url": "https://www.facebook.com/littlemissbrewing/",
      "address": "7649 Stromesa Ct, Suite Y, San Diego, CA 92126",
      "latitude": 32.892565,
      "longitude": -117.148445
    },
    {
      "brewery": "Longship Brewery",
      "url": "http://www.longshipbrewery.com/",
      "address": "10320 Camino Santa Fe, San Diego, CA 92121",
      "latitude": 32.904061,
      "longitude": -117.171464
    },
    {
      "brewery": "Mason Ale Works",
      "url": "http://www.masonaleworks.com/",
      "address": "2002 S Coast Hwy, Oceanside, CA, 92054",
      "latitude": 33.172073,
      "longitude": -117.359123
    },
    {
      "brewery": "Mason Ale Works",
      "url": "http://www.masonaleworks.com/",
      "address": "255 Redel Rd, San Marcos, CA 92078",
      "latitude": 33.135894,
      "longitude": -117.158564
    },
    {
      "brewery": "Midnight Jack Brewing Company",
      "url": "http://www.midnightjackbrewing.com/",
      "address": "3801 Oceanic Dr, Oceanside, CA 92058",
      "latitude": 33.205154,
      "longitude": -117.304625
    },
    {
      "brewery": "Mike Hess Brewing",
      "url": "http://www.hessbrewing.com/",
      "address": "3812 Grim Avenue, San Diego, CA 92104",
      "latitude": 32.747689,
      "longitude": -117.128543
    },
    {
      "brewery": "Mikkeller Brewing San Diego",
      "url": "http://mikkeller.dk/",
      "address": "9368 Cabbot Dr, San Diego, CA 92126",
      "latitude": 32.892381,
      "longitude": -117.144738
    },
    {
      "brewery": "Mission Brewery",
      "url": "http://missionbrewery.com/",
      "address": "1441 L Street, San Diego, CA 92101",
      "latitude": 32.707148,
      "longitude": -117.151592
    },
    {
      "brewery": "Modern Times",
      "url": "http://moderntimesbeer.com/",
      "address": "3725 Greenwood Street, San Diego, CA 92110",
      "latitude": 32.754204,
      "longitude": -117.206198
    },
    {
      "brewery": "Monkey Paw Pub & Brewery",
      "url": "http://monkeypawbrewing.com/",
      "address": "805 16th Street, San Diego, CA 92101",
      "latitude": 32.713857,
      "longitude": -117.149247
    },
    {
      "brewery": "Mother Earth Brew Company",
      "url": "http://www.motherearthbrewco.com/",
      "address": "2055 Thibodo Road, Suite H, Vista, CA 92081",
      "latitude": 33.167713,
      "longitude": -117.220317
    },
    {
      "brewery": "New English Brewing Company",
      "url": "http://www.newenglishbrewing.com/",
      "address": "11545 Sorrento Valley Road, Suite 305, San Diego, CA 92121",
      "latitude": 32.912735,
      "longitude": -117.230606
    },
    {
      "brewery": "Nickel Beer Company",
      "url": "http://nickelbeerco.com/",
      "address": "1485 Hollow Glen Road, Julian, CA 92036",
      "latitude": 33.076581,
      "longitude": -116.590543
    },
    {
      "brewery": "North Park Beer Co",
      "url": "http://www.northparkbeerco.com/",
      "address": "3038 University Ave, San Diego, CA 92104",
      "latitude": 32.748718,
      "longitude": -117.129118
    },
    {
      "brewery": "Northern Pine Brewing Company",
      "url": "https://northernpinebrewing.com/",
      "address": "326 N. Horne, Oceanside, CA 92054",
      "latitude": 33.199836,
      "longitude": -117.376933
    },
    {
      "brewery": "Novo Brazil Brewing Co.",
      "url": "http://www.novobrazilbrewing.com/",
      "address": "901 Lane Av, Chula Vista, California 91914",
      "latitude": 32.652016,
      "longitude": -116.961418
    },
    {
      "brewery": "OB Brewery",
      "url": "http://oceanbeachbrewery.blogspot.com/",
      "address": "5041 Newport Ave, San Diego, CA 92107",
      "latitude": 32.74722,
      "longitude": -117.251973
    },
    {
      "brewery": "Oceanside Ale Works",
      "url": "http://www.oceansidealeworks.net/",
      "address": "1800 Ord Way, Oceanside, CA 92056",
      "latitude": 33.211611,
      "longitude": -117.272715
    },
    {
      "brewery": "Oceanside Brewing Company",
      "url": "http://www.oceansidebrewingco.com/",
      "address": "312 Via Del Norte, Oceanside, CA 92058",
      "latitude": 33.212802,
      "longitude": -117.352237
    },
    {
      "brewery": "O'Sullivan Brother's Brewing",
      "url": "http://www.osullivan-brothers.com/",
      "address": "9879 Hibert Street, Suite F, San Diego, CA 92131",
      "latitude": 32.91326,
      "longitude": -117.112779
    },
    {
      "brewery": "Pacific Beach Ale House",
      "url": "http://www.pbalehouse.com/",
      "address": "721 Grand Avenue, San Diego, CA 92109",
      "latitude": 32.794325,
      "longitude": -117.255349
    },
    {
      "brewery": "Pacific Islander Beer Co.",
      "url": "http://www.pibbeer.com/",
      "address": "8665 Argent St Ste B, Santee, CA 92071",
      "latitude": 32.832888,
      "longitude": -116.988967
    },
    {
      "brewery": "Pariah Brewing Company",
      "url": "https://www.pariahbrewingco.com/",
      "address": "3052 El Cajon Blvd, Suite B, San Diego, CA 92104",
      "latitude": 32.75558,
      "longitude": -117.12875
    },
    {
      "brewery": "Pizza Port Bressi Ranch",
      "url": "http://www.pizzaport.com/locations/pizza-port-bressi-ranch/",
      "address": "2730 Gateway Road, Carlsbad, CA 92009",
      "latitude": 33.128671,
      "longitude": -117.250067
    },
    {
      "brewery": "Pizza Port Carlsbad",
      "url": "http://www.pizzaport.com/locations/pizza-port-carlsbad/",
      "address": "571 Carlsbad Village Drive, Carlsbad, CA 92008",
      "latitude": 33.159909,
      "longitude": -117.347738
    },
    {
      "brewery": "Pizza Port Ocean Beach",
      "url": "http://www.pizzaport.com/locations/pizza-port-ocean-beach/",
      "address": "1956 Bacon Street, San Diego CA 92107",
      "latitude": 32.747965,
      "longitude": -117.250302
    },
    {
      "brewery": "Pizza Port Solana Beach",
      "url": "http://www.pizzaport.com/locations/pizza-port-solana-beach/",
      "address": "135 North Highway 101, Solana Beach, 92075",
      "latitude": 32.992923,
      "longitude": -117.272216
    },
    {
      "brewery": "Plan 9 Ale House",
      "url": "http://www.plan9alehouse.com/",
      "address": "155 E. Grand Avenue, Escondido, CA 92025",
      "latitude": 33.121938,
      "longitude": -117.080178
    },
    {
      "brewery": "Poor House Brewing Co",
      "url": "http://www.poorhousebrew.com/",
      "address": "4494 30th Street, San Diego, CA 92116",
      "latitude": 32.758973,
      "longitude": -117.130389
    },
    {
      "brewery": "Port Brewing / The Lost Abbey",
      "url": "http://www.lostabbey.com/",
      "address": "155 Mata Way #104, San Marcos, CA 92069",
      "latitude": 33.141629,
      "longitude": -117.149361
    },
    {
      "brewery": "Prodigy Brewing Company",
      "url": "http://www.prodigybrewingcompany.com/",
      "address": "San Marcos, CA",
      "latitude": 33.143372,
      "longitude": -117.166145
    },
    {
      "brewery": "Prohibition Brewing Company",
      "url": "http://www.prohibitionbrewingcompany.com/",
      "address": "2004 E. Vista Way Vista, CA 92084",
      "latitude": 33.230447,
      "longitude": -117.226595
    },
    {
      "brewery": "Protector Brewery",
      "url": "https://protectorbrewery.com/",
      "address": "8680 Miralani Dr #128, San Diego, CA 92126",
      "latitude": 32.896653,
      "longitude": -117.137275
    },
    {
      "brewery": "Pure Project Brewing",
      "url": "http://purebrewing.org/",
      "address": "9030 Kenamar Dr #308 San Diego, Ca 92121",
      "latitude": 32.886631,
      "longitude": -117.157127
    },
    {
      "brewery": "Quantum Brewing Co.",
      "url": "http://quantumbrewingsd.com/",
      "address": "5375 Kearny Villa Road #116, San Diego, CA 92123",
      "latitude": 32.830889,
      "longitude": -117.138401
    },
    {
      "brewery": "Reckless Brewing Co.",
      "url": "http://recklessbrewing.com/",
      "address": "9040 Carroll Way, Suite 8, San Diego, CA 92121",
      "latitude": 32.888007,
      "longitude": -117.159609
    },
    {
      "brewery": "Resident Brewing Co.",
      "url": "http://www.residentbrewing.com/",
      "address": "411 C St, San Diego, CA 92101",
      "latitude": 32.71658,
      "longitude": -117.160589
    },
    {
      "brewery": "Rip Current Brewing Co.",
      "url": "http://ripcurrentbrewing.com/",
      "address": "1325 Grand Avenue #100, San Marcos, CA 92078",
      "latitude": 33.142752,
      "longitude": -117.192507
    },
    {
      "brewery": "Rock Bottom Brewery Restaurant La Jolla",
      "url": "http://www.rockbottom.com/locations/la-jolla",
      "address": "8980 Villa La Jolla Drive, San Diego, CA 92037",
      "latitude": 32.871291,
      "longitude": -117.234266
    },
    {
      "brewery": "Rough Draft Brewing Company",
      "url": "http://www.roughdraftbrew.com/",
      "address": "8830 Rehco Rd. Suite D, San Diego CA 92121",
      "latitude": 32.883487,
      "longitude": -117.171786
    },
    {
      "brewery": "Rouleur Brewing Company",
      "url": "http://rouleurbrewing.com/",
      "address": "5840 El Camino Real, Suite 101, Carlsbad, CA 92008",
      "latitude": 33.134515,
      "longitude": -117.270092
    },
    {
      "brewery": "San Diego Brewing Company",
      "url": "http://www.sandiegobrewing.com/",
      "address": "10450 Friars Rd. Ste. L, San Diego, CA 92120",
      "latitude": 32.792327,
      "longitude": -117.099055
    },
    {
      "brewery": "San Diego Brewing Company",
      "url": "http://www.sandiegobrewing.com/",
      "address": "3052 El Cajon Blvd, San Diego, CA 92104",
      "latitude": 32.75558,
      "longitude": -117.12875
    },
    {
      "brewery": "San Marcos Brewery & Grill",
      "url": "http://sanmarcosbrewery.com/",
      "address": "1080 W. San Marcos Blvd. #108, San Marcos, CA 92078",
      "latitude": 33.134435,
      "longitude": -117.190968
    },
    {
      "brewery": "Second Chance Beer Co.",
      "url": "http://www.secondchancebeer.com/",
      "address": "15378 Avenue of Science #222, San Diego, CA 92128",
      "latitude": 32.994753,
      "longitude": -117.082074
    },
    {
      "brewery": "Smoking Cannon Brewery",
      "url": "http://smokingcannonbrewery.com/",
      "address": "780 Main St, Ramona, CA 92065",
      "latitude": 33.043604,
      "longitude": -116.864991
    },
    {
      "brewery": "Societe Brewing Co.",
      "url": "http://www.societebrewing.com/",
      "address": "8262 Clairemont Mesa Blvd San Diego, CA 92111",
      "latitude": 32.833858,
      "longitude": -117.146373
    },
    {
      "brewery": "South Park Brewing Co.",
      "url": "http://www.southparkbrewing.com/",
      "address": "1537 30th Street, San Diego, CA 92102",
      "latitude": 32.722042,
      "longitude": -117.129899
    },
    {
      "brewery": "SpecHops Brewing Co.",
      "url": "https://spechopsbrewingcompany.com/",
      "address": "1280 Activity Dr, Vista, CA 92081",
      "latitude": 33.141945,
      "longitude": -117.219429
    },
    {
      "brewery": "SR76 Brewery",
      "url": "https://www.sr76beerworks.com/",
      "address": "777 Harrah's Rincon Way, Valley Center, CA 92082",
      "latitude": 33.267594,
      "longitude": -116.955439
    },
    {
      "brewery": "Saint Archer Brewing Co.",
      "url": "http://www.saintarcherbrewery.com/",
      "address": "9550 Distribution Ave. San Diego, CA 92121",
      "latitude": 32.880482,
      "longitude": -117.163466
    },
    {
      "brewery": "Stone Brewing Company",
      "url": "http://www.stonebrewing.com/",
      "address": "1999 Citracado Parkway, Escondido, CA 92029",
      "latitude": 33.115811,
      "longitude": -117.120012
    },
    {
      "brewery": "Stone Brewing Liberty Station",
      "url": "http://www.stonelibertystation.com/",
      "address": "2816 Historic Decatur Rd #116â€Ž, San Diego, CA 92106",
      "latitude": 32.740155,
      "longitude": -117.211195
    },
    {
      "brewery": "Stumblefoot Brewing Company",
      "url": "http://www.stumblefoot.com/",
      "address": "1784 La Costa Meadows Dr #103, San Marcos, CA 92078",
      "latitude": 33.104942,
      "longitude": -117.219315
    },
    {
      "brewery": "Thorn St. Brewery",
      "url": "http://thornstreetbrew.com/",
      "address": "3176 Thorn St., San Diego, CA 92104",
      "latitude": 32.739399,
      "longitude": -117.125499
    },
    {
      "brewery": "Thr3e Punks Ales Brewing Co.",
      "url": "http://www.3punkales.com/",
      "address": "259 3rd Ave, Chula Vista, CA 91910",
      "latitude": 32.642843,
      "longitude": -117.080167
    },
    {
      "brewery": "Thunderhawk Alements",
      "url": "http://thunderhawkbeer.com/",
      "address": "8675 Miralani Dr, Suite 100, San Diego, CA 92126",
      "latitude": 32.895791,
      "longitude": -117.137477
    },
    {
      "brewery": "Toolbox Brewing",
      "url": "http://www.toolboxbrewing.com/",
      "address": "1495 Poinsettia Avenue, Suite 148, Vista, CA 92071",
      "latitude": 33.136697,
      "longitude": -117.22687
    },
    {
      "brewery": "Viewpoint Brewing Co.",
      "url": "http://viewpointbrewing.com/",
      "address": "2201 San Dieguito Dr, Del Mar, CA 92014",
      "latitude": 32.969936,
      "longitude": -117.261779
    },
    {
      "brewery": "Wavelength Brewing Co.",
      "url": "http://www.wavelengthbrewco.com/",
      "address": "326 Main Street, Vista, CA 92084",
      "latitude": 33.203168,
      "longitude": -117.241003
    },
    {
      "brewery": "White Labs",
      "url": "http://www.whitelabs.com/",
      "address": "9495 Candida Street, San Diego, CA 92126",
      "latitude": 32.895722,
      "longitude": -117.121374
    },
    {
      "brewery": "Wild Barrel Brewing",
      "url": "https://wildbarrelbrewing.com/",
      "address": "692 Rancheros Dr, San Marcos, CA 92069",
      "latitude": 33.140147,
      "longitude": -117.145759
    }
  ]